examples/data/uhf_correlation/2002-009A-2016-09-06_08:27:08.tdm

CCSDS_TDM_VERS = 1.0
   COMMENT This is a track of ENVISAT with EISCAT UHF
   COMMENT 929.6 MHz, time of flight, no ionospheric corrections
   COMMENT EISCAT UHF coordinates: 
   COMMENT Position and height models, EUREF89 UTM Zone 33/NN1954
   COMMENT Position: 7725445.727  664387.767   85.554 (ETRS89)
   COMMENT Position: 69.58649229 N 19.22592538 E, 85.554 m (WGS84)
   COMMENT Author(s): Juha Vierinen, Jussi Markkanen, Henry Pinedo, EISCAT.
   COMMENT Positioning method: single pulse range-Doppler matched filter
   COMMENT                     (1/64.0) microsecond range step.
   CREATION_DATE       = 2017-03-10T15:09:24
   ORIGINATOR          = EISCAT
META_START
   TIME_SYSTEM         = UTC
   START_TIME          = 2016-09-06T08:27:08.660000
   STOP_TIME           = 2016-09-06T08:31:57.180000
   PARTICIPANT_1       = EISCAT_UHF_TROMSO
   PARTICIPANT_2       = 2002-009A
   MODE                = SEQUENTIAL
   PATH                = 1,2,1
   TRANSMIT_BAND       = UHF
   RECEIVE_BAND        = UHF
   TIMETAG_REF         = TRANSMIT
   INTEGRATION_REF     = START
   RANGE_MODE          = CONSTANT
   RANGE_MODULUS       = 2.56
   RANGE_UNITS         = s
   DATA_QUALITY        = VALIDATED
   CORRECTION_RANGE    = 0.0
   CORRECTIONS_APPLIED = NO
META_STOP
DATA_START
   RANGE                   = 2016-09-06T08:27:08.660000 0.009107743750
   DOPPLER_INSTANTANEOUS   = 2016-09-06T08:27:08.660000 5.353940650296
   RANGE                   = 2016-09-06T08:27:08.680000 0.009106931250
   DOPPLER_INSTANTANEOUS   = 2016-09-06T08:27:08.680000 5.353940650296
   RANGE                   = 2016-09-06T08:27:08.700000 0.009106212500
   DOPPLER_INSTANTANEOUS   = 2016-09-06T08:27:08.700000 5.353940650296
   RANGE                   = 2016-09-06T08:27:08.720000 0.009105618750
   DOPPLER_INSTANTANEOUS   = 2016-09-06T08:27:08.720000 5.353940650296
   RANGE                   = 2016-09-06T08:27:08.740000 0.009104868750
   DOPPLER_INSTANTANEOUS   = 2016-09-06T08:27:08.740000 5.353940650296
   RANGE                   = 2016-09-06T08:27:08.760000 0.009104087500
   DOPPLER_INSTANTANEOUS   = 2016-09-06T08:27:08.760000 5.353940650296
   RANGE                   = 2016-09-06T08:27:08.780000 0.009103493750
   DOPPLER_INSTANTANEOUS   = 2016-09-06T08:27:08.780000 5.353940650296
   RANGE                   = 2016-09-06T08:27:08.800000 0.009102775000
   DOPPLER_INSTANTANEOUS   = 2016-09-06T08:27:08.800000 5.353940650296
   RANGE                   = 2016-09-06T08:27:08.820000 0.009101962500
   DOPPLER_INSTANTANEOUS   = 2016-09-06T08:27:08.820000 5.353940650296
   RANGE                   = 2016-09-06T08:27:08.840000 0.009101306250
   DOPPLER_INSTANTANEOUS   = 2016-09-06T08:27:08.840000 5.353940650296
   RANGE                   = 2016-09-06T08:27:08.860000 0.009100681250
   DOPPLER_INSTANTANEOUS   = 2016-09-06T08:27:08.860000 5.353940650296
   RANGE                   = 2016-09-06T08:27:08.880000 0.009099900000
   DOPPLER_INSTANTANEOUS   = 2016-09-06T08:27:08.880000 5.353940650296
   RANGE                   = 2016-09-06T08:27:08.900000 0.009099118750
   DOPPLER_INSTANTANEOUS   = 2016-09-06T08:27:08.900000 5.353940650296
   RANGE                   = 2016-09-06T08:27:08.920000 0.009098493750
   DOPPLER_INSTANTANEOUS   = 2016-09-06T08:27:08.920000 5.353940650296
   RANGE                   = 2016-09-06T08:27:08.940000 0.009097775000
   DOPPLER_INSTANTANEOUS   = 2016-09-06T08:27:08.940000 5.353940650296
   RANGE                   = 2016-09-06T08:27:08.960000 0.009096993750
   DOPPLER_INSTANTANEOUS   = 2016-09-06T08:27:08.960000 5.353940650296
   RANGE                   = 2016-09-06T08:27:08.980000 0.009096306250
   DOPPLER_INSTANTANEOUS   = 2016-09-06T08:27:08.980000 5.353940650296
   RANGE                   = 2016-09-06T08:27:09.000000 0.009095650000
   DOPPLER_INSTANTANEOUS   = 2016-09-06T08:27:09.000000 5.353940650296
   RANGE                   = 2016-09-06T08:27:09.020000 0.009094900000
   DOPPLER_INSTANTANEOUS   = 2016-09-06T08:27:09.020000 5.353940650296
   RANGE                   = 2016-09-06T08:27:09.040000 0.009094150000
   DOPPLER_INSTANTANEOUS   = 2016-09-06T08:27:09.040000 5.353940650296
   RANGE                   = 2016-09-06T08:27:09.060000 0.009093525000
   DOPPLER_INSTANTANEOUS   = 2016-09-06T08:27:09.060000 5.353940650296
   RANGE                   = 2016-09-06T08:27:09.080000 0.009092837500
   DOPPLER_INSTANTANEOUS   = 2016-09-06T08:27:09.080000 5.353940650296
   RANGE                   = 2016-09-06T08:27:09.100000 0.009092025000
   DOPPLER_INSTANTANEOUS   = 2016-09-06T08:27:09.100000 5.353940650296
   RANGE                   = 2016-09-06T08:27:09.120000 0.009091368750
   DOPPLER_INSTANTANEOUS   = 2016-09-06T08:27:09.120000 5.353940650296
   RANGE                   = 2016-09-06T08:27:09.140000 0.009090712500
   DOPPLER_INSTANTANEOUS   = 2016-09-06T08:27:09.140000 5.353940650296
   RANGE                   = 2016-09-06T08:27:09.160000 0.009089962500
   DOPPLER_INSTANTANEOUS   = 2016-09-06T08:27:09.160000 5.353940650296
   RANGE                   = 2016-09-06T08:27:09.180000 0.009089150000
   DOPPLER_INSTANTANEOUS   = 2016-09-06T08:27:09.180000 5.353940650296
   RANGE                   = 2016-09-06T08:27:09.200000 0.009088556250
   DOPPLER_INSTANTANEOUS   = 2016-09-06T08:27:09.200000 5.353940650296
   RANGE                   = 2016-09-06T08:27:09.220000 0.009087837500
   DOPPLER_INSTANTANEOUS   = 2016-09-06T08:27:09.220000 5.353940650296
   RANGE                   = 2016-09-06T08:27:09.240000 0.009087025000
   DOPPLER_INSTANTANEOUS   = 2016-09-06T08:27:09.240000 5.353940650296
   RANGE                   = 2016-09-06T08:27:09.260000 0.009086337500
   DOPPLER_INSTANTANEOUS   = 2016-09-06T08:27:09.260000 5.353940650296
   RANGE                   = 2016-09-06T08:27:09.280000 0.009085712500
   DOPPLER_INSTANTANEOUS   = 2016-09-06T08:27:09.280000 5.353940650296
   RANGE                   = 2016-09-06T08:27:09.300000 0.009084931250
   DOPPLER_INSTANTANEOUS   = 2016-09-06T08:27:09.300000 5.353940650296
   RANGE                   = 2016-09-06T08:27:09.320000 0.009084150000
   DOPPLER_INSTANTANEOUS   = 2016-09-06T08:27:09.320000 5.353940650296
   RANGE                   = 2016-09-06T08:27:09.340000 0.009083556250
   DOPPLER_INSTANTANEOUS   = 2016-09-06T08:27:09.340000 5.353940650296
   RANGE                   = 2016-09-06T08:27:09.360000 0.009082837500
   DOPPLER_INSTANTANEOUS   = 2016-09-06T08:27:09.360000 5.353940650296
   RANGE                   = 2016-09-06T08:27:09.380000 0.009081993750
   DOPPLER_INSTANTANEOUS   = 2016-09-06T08:27:09.380000 5.353940650296
   RANGE                   = 2016-09-06T08:27:09.400000 0.009081337500
   DOPPLER_INSTANTANEOUS   = 2016-09-06T08:27:09.400000 5.353940650296
   RANGE                   = 2016-09-06T08:27:09.420000 0.009080712500
   DOPPLER_INSTANTANEOUS   = 2016-09-06T08:27:09.420000 5.353940650296
   RANGE                   = 2016-09-06T08:27:09.440000 0.009079900000
   DOPPLER_INSTANTANEOUS   = 2016-09-06T08:27:09.440000 5.353940650296
   RANGE                   = 2016-09-06T08:27:09.460000 0.009079118750
   DOPPLER_INSTANTANEOUS   = 2016-09-06T08:27:09.460000 5.353940650296
   RANGE                   = 2016-09-06T08:27:09.480000 0.009078493750
   DOPPLER_INSTANTANEOUS   = 2016-09-06T08:27:09.480000 5.353940650296
   RANGE                   = 2016-09-06T08:27:09.500000 0.009077775000
   DOPPLER_INSTANTANEOUS   = 2016-09-06T08:27:09.500000 5.353940650296
   RANGE                   = 2016-09-06T08:27:09.520000 0.009076993750
   DOPPLER_INSTANTANEOUS   = 2016-09-06T08:27:09.520000 5.353940650296
   RANGE                   = 2016-09-06T08:27:09.540000 0.009076306250
   DOPPLER_INSTANTANEOUS   = 2016-09-06T08:27:09.540000 5.353940650296
   RANGE                   = 2016-09-06T08:27:09.560000 0.009075681250
   DOPPLER_INSTANTANEOUS   = 2016-09-06T08:27:09.560000 5.353940650296
   RANGE                   = 2016-09-06T08:27:09.580000 0.009074900000
   DOPPLER_INSTANTANEOUS   = 2016-09-06T08:27:09.580000 5.353940650296
   RANGE                   = 2016-09-06T08:27:09.600000 0.009074118750
   DOPPLER_INSTANTANEOUS   = 2016-09-06T08:27:09.600000 5.353940650296
   RANGE                   = 2016-09-06T08:27:09.620000 0.009073556250
   DOPPLER_INSTANTANEOUS   = 2016-09-06T08:27:09.620000 5.353940650296
   RANGE                   = 2016-09-06T08:27:09.640000 0.009072837500
   DOPPLER_INSTANTANEOUS   = 2016-09-06T08:27:09.640000 5.353940650296
   RANGE                   = 2016-09-06T08:27:09.660000 0.009071993750
   DOPPLER_INSTANTANEOUS   = 2016-09-06T08:27:09.660000 5.353940650296
   RANGE                   = 2016-09-06T08:27:09.680000 0.009071337500
   DOPPLER_INSTANTANEOUS   = 2016-09-06T08:27:09.680000 5.353940650296
   RANGE                   = 2016-09-06T08:27:09.700000 0.009070681250
   DOPPLER_INSTANTANEOUS   = 2016-09-06T08:27:09.700000 5.353940650296
   RANGE                   = 2016-09-06T08:27:09.720000 0.009069900000
   DOPPLER_INSTANTANEOUS   = 2016-09-06T08:27:09.720000 5.353940650296
   RANGE                   = 2016-09-06T08:27:09.740000 0.009069150000
   DOPPLER_INSTANTANEOUS   = 2016-09-06T08:27:09.740000 5.353940650296
   RANGE                   = 2016-09-06T08:27:09.760000 0.009068556250
   DOPPLER_INSTANTANEOUS   = 2016-09-06T08:27:09.760000 5.353940650296
   RANGE                   = 2016-09-06T08:27:09.780000 0.009067806250
   DOPPLER_INSTANTANEOUS   = 2016-09-06T08:27:09.780000 5.353940650296
   RANGE                   = 2016-09-06T08:27:09.800000 0.009067025000
   DOPPLER_INSTANTANEOUS   = 2016-09-06T08:27:09.800000 5.353940650296
   RANGE                   = 2016-09-06T08:27:09.820000 0.009066368750
   DOPPLER_INSTANTANEOUS   = 2016-09-06T08:27:09.820000 5.353940650296
   RANGE                   = 2016-09-06T08:27:09.840000 0.009065743750
   DOPPLER_INSTANTANEOUS   = 2016-09-06T08:27:09.840000 5.353940650296
   RANGE                   = 2016-09-06T08:27:09.860000 0.009064962500
   DOPPLER_INSTANTANEOUS   = 2016-09-06T08:27:09.860000 5.353940650296
   RANGE                   = 2016-09-06T08:27:09.880000 0.009064150000
   DOPPLER_INSTANTANEOUS   = 2016-09-06T08:27:09.880000 5.353940650296
   RANGE                   = 2016-09-06T08:27:09.900000 0.009063587500
   DOPPLER_INSTANTANEOUS   = 2016-09-06T08:27:09.900000 5.353940650296
   RANGE                   = 2016-09-06T08:27:09.920000 0.009062806250
   DOPPLER_INSTANTANEOUS   = 2016-09-06T08:27:09.920000 5.353940650296
   RANGE                   = 2016-09-06T08:27:09.940000 0.009061993750
   DOPPLER_INSTANTANEOUS   = 2016-09-06T08:27:09.940000 5.353940650296
   RANGE                   = 2016-09-06T08:27:09.960000 0.009061306250
   DOPPLER_INSTANTANEOUS   = 2016-09-06T08:27:09.960000 5.353940650296
   RANGE                   = 2016-09-06T08:27:09.980000 0.009060712500
   DOPPLER_INSTANTANEOUS   = 2016-09-06T08:27:09.980000 5.353940650296
   RANGE                   = 2016-09-06T08:27:10.000000 0.009059900000
   DOPPLER_INSTANTANEOUS   = 2016-09-06T08:27:10.000000 5.353940650296
   RANGE                   = 2016-09-06T08:27:10.020000 0.009059150000
   DOPPLER_INSTANTANEOUS   = 2016-09-06T08:27:10.020000 5.353940650296
   RANGE                   = 2016-09-06T08:27:10.040000 0.009058587500
   DOPPLER_INSTANTANEOUS   = 2016-09-06T08:27:10.040000 5.353940650296
   RANGE                   = 2016-09-06T08:27:10.060000 0.009057837500
   DOPPLER_INSTANTANEOUS   = 2016-09-06T08:27:10.060000 5.353940650296
   RANGE                   = 2016-09-06T08:27:10.080000 0.009057056250
   DOPPLER_INSTANTANEOUS   = 2016-09-06T08:27:10.080000 5.353940650296
   RANGE                   = 2016-09-06T08:27:10.100000 0.009056368750
   DOPPLER_INSTANTANEOUS   = 2016-09-06T08:27:10.100000 5.353940650296
   RANGE                   = 2016-09-06T08:27:10.120000 0.009055712500
   DOPPLER_INSTANTANEOUS   = 2016-09-06T08:27:10.120000 5.353940650296
   RANGE                   = 2016-09-06T08:27:10.140000 0.009054900000
   DOPPLER_INSTANTANEOUS   = 2016-09-06T08:27:10.140000 5.353940650296
   RANGE                   = 2016-09-06T08:27:10.160000 0.009054181250
   DOPPLER_INSTANTANEOUS   = 2016-09-06T08:27:10.160000 5.353940650296
   RANGE                   = 2016-09-06T08:27:10.180000 0.009053618750
   DOPPLER_INSTANTANEOUS   = 2016-09-06T08:27:10.180000 5.353940650296
   RANGE                   = 2016-09-06T08:27:10.200000 0.009052837500
   DOPPLER_INSTANTANEOUS   = 2016-09-06T08:27:10.200000 5.353940650296
   RANGE                   = 2016-09-06T08:27:10.220000 0.009052025000
   DOPPLER_INSTANTANEOUS   = 2016-09-06T08:27:10.220000 5.353940650296
   RANGE                   = 2016-09-06T08:27:10.240000 0.009051525000
   DOPPLER_INSTANTANEOUS   = 2016-09-06T08:27:10.240000 5.353940650296
   RANGE                   = 2016-09-06T08:27:10.260000 0.009050775000
   DOPPLER_INSTANTANEOUS   = 2016-09-06T08:27:10.260000 5.353940650296
   RANGE                   = 2016-09-06T08:27:10.280000 0.009049931250
   DOPPLER_INSTANTANEOUS   = 2016-09-06T08:27:10.280000 5.353940650296
   RANGE                   = 2016-09-06T08:27:10.300000 0.009049181250
   DOPPLER_INSTANTANEOUS   = 2016-09-06T08:27:10.300000 5.353940650296
   RANGE                   = 2016-09-06T08:27:10.320000 0.009048650000
   DOPPLER_INSTANTANEOUS   = 2016-09-06T08:27:10.320000 5.353940650296
   RANGE                   = 2016-09-06T08:27:10.340000 0.009047837500
   DOPPLER_INSTANTANEOUS   = 2016-09-06T08:27:10.340000 5.353940650296
   RANGE                   = 2016-09-06T08:27:10.360000 0.009047025000
   DOPPLER_INSTANTANEOUS   = 2016-09-06T08:27:10.360000 5.353940650296
   RANGE                   = 2016-09-06T08:27:10.380000 0.009046525000
   DOPPLER_INSTANTANEOUS   = 2016-09-06T08:27:10.380000 5.353940650296
   RANGE                   = 2016-09-06T08:27:10.400000 0.009045837500
   DOPPLER_INSTANTANEOUS   = 2016-09-06T08:27:10.400000 5.353940650296
   RANGE                   = 2016-09-06T08:27:10.420000 0.009044868750
   DOPPLER_INSTANTANEOUS   = 2016-09-06T08:27:10.420000 5.353940650296
   RANGE                   = 2016-09-06T08:27:10.440000 0.009044243750
   DOPPLER_INSTANTANEOUS   = 2016-09-06T08:27:10.440000 5.353940650296
   RANGE                   = 2016-09-06T08:27:10.460000 0.009043650000
   DOPPLER_INSTANTANEOUS   = 2016-09-06T08:27:10.460000 5.353940650296
   RANGE                   = 2016-09-06T08:27:10.480000 0.009042868750
   DOPPLER_INSTANTANEOUS   = 2016-09-06T08:27:10.480000 5.353940650296
   RANGE                   = 2016-09-06T08:27:10.500000 0.009042118750
   DOPPLER_INSTANTANEOUS   = 2016-09-06T08:27:10.500000 5.353940650296
   RANGE                   = 2016-09-06T08:27:10.520000 0.009041556250
   DOPPLER_INSTANTANEOUS   = 2016-09-06T08:27:10.520000 5.353940650296
   RANGE                   = 2016-09-06T08:27:10.540000 0.009040806250
   DOPPLER_INSTANTANEOUS   = 2016-09-06T08:27:10.540000 5.353940650296
   RANGE                   = 2016-09-06T08:27:10.560000 0.009040025000
   DOPPLER_INSTANTANEOUS   = 2016-09-06T08:27:10.560000 5.353940650296
   RANGE                   = 2016-09-06T08:27:10.580000 0.009039306250
   DOPPLER_INSTANTANEOUS   = 2016-09-06T08:27:10.580000 5.353940650296
   RANGE                   = 2016-09-06T08:27:10.600000 0.009038712500
   DOPPLER_INSTANTANEOUS   = 2016-09-06T08:27:10.600000 5.353940650296
   RANGE                   = 2016-09-06T08:27:10.620000 0.009037931250
   DOPPLER_INSTANTANEOUS   = 2016-09-06T08:27:10.620000 5.353940650296
   RANGE                   = 2016-09-06T08:27:10.640000 0.009037118750
   DOPPLER_INSTANTANEOUS   = 2016-09-06T08:27:10.640000 5.353940650296
   RANGE                   = 2016-09-06T08:27:10.660000 0.009036556250
   DOPPLER_INSTANTANEOUS   = 2016-09-06T08:27:10.660000 5.353940650296
   RANGE                   = 2016-09-06T08:27:10.680000 0.009035806250
   DOPPLER_INSTANTANEOUS   = 2016-09-06T08:27:10.680000 5.353940650296
   RANGE                   = 2016-09-06T08:27:10.700000 0.009034931250
   DOPPLER_INSTANTANEOUS   = 2016-09-06T08:27:10.700000 5.353940650296
   RANGE                   = 2016-09-06T08:27:10.720000 0.009034337500
   DOPPLER_INSTANTANEOUS   = 2016-09-06T08:27:10.720000 5.353940650296
   RANGE                   = 2016-09-06T08:27:10.740000 0.009033712500
   DOPPLER_INSTANTANEOUS   = 2016-09-06T08:27:10.740000 5.353940650296
   RANGE                   = 2016-09-06T08:27:10.760000 0.009032931250
   DOPPLER_INSTANTANEOUS   = 2016-09-06T08:27:10.760000 5.353940650296
   RANGE                   = 2016-09-06T08:27:10.780000 0.009032150000
   DOPPLER_INSTANTANEOUS   = 2016-09-06T08:27:10.780000 5.353940650296
   RANGE                   = 2016-09-06T08:27:10.800000 0.009031618750
   DOPPLER_INSTANTANEOUS   = 2016-09-06T08:27:10.800000 5.353940650296
   RANGE                   = 2016-09-06T08:27:10.820000 0.009030806250
   DOPPLER_INSTANTANEOUS   = 2016-09-06T08:27:10.820000 5.353940650296
   RANGE                   = 2016-09-06T08:27:10.840000 0.009030025000
   DOPPLER_INSTANTANEOUS   = 2016-09-06T08:27:10.840000 5.353940650296
   RANGE                   = 2016-09-06T08:27:10.860000 0.009029337500
   DOPPLER_INSTANTANEOUS   = 2016-09-06T08:27:10.860000 5.353940650296
   RANGE                   = 2016-09-06T08:27:10.880000 0.009028775000
   DOPPLER_INSTANTANEOUS   = 2016-09-06T08:27:10.880000 5.353940650296
   RANGE                   = 2016-09-06T08:27:10.900000 0.009027868750
   DOPPLER_INSTANTANEOUS   = 2016-09-06T08:27:10.900000 5.353940650296
   RANGE                   = 2016-09-06T08:27:10.920000 0.009027150000
   DOPPLER_INSTANTANEOUS   = 2016-09-06T08:27:10.920000 5.353940650296
   RANGE                   = 2016-09-06T08:27:10.940000 0.009026493750
   DOPPLER_INSTANTANEOUS   = 2016-09-06T08:27:10.940000 5.353940650296
   RANGE                   = 2016-09-06T08:27:10.960000 0.009025775000
   DOPPLER_INSTANTANEOUS   = 2016-09-06T08:27:10.960000 5.353940650296
   RANGE                   = 2016-09-06T08:27:10.980000 0.009024900000
   DOPPLER_INSTANTANEOUS   = 2016-09-06T08:27:10.980000 5.353940650296
   RANGE                   = 2016-09-06T08:27:11.000000 0.009024275000
   DOPPLER_INSTANTANEOUS   = 2016-09-06T08:27:11.000000 5.353940650296
   RANGE                   = 2016-09-06T08:27:11.020000 0.009023618750
   DOPPLER_INSTANTANEOUS   = 2016-09-06T08:27:11.020000 5.353940650296
   RANGE                   = 2016-09-06T08:27:11.040000 0.009022775000
   DOPPLER_INSTANTANEOUS   = 2016-09-06T08:27:11.040000 5.353940650296
   RANGE                   = 2016-09-06T08:27:11.060000 0.009021993750
   DOPPLER_INSTANTANEOUS   = 2016-09-06T08:27:11.060000 5.353940650296
   RANGE                   = 2016-09-06T08:27:11.080000 0.009021368750
   DOPPLER_INSTANTANEOUS   = 2016-09-06T08:27:11.080000 5.353940650296
   RANGE                   = 2016-09-06T08:27:11.120000 0.009020681250
   DOPPLER_INSTANTANEOUS   = 2016-09-06T08:27:11.120000 5.353940650296
   RANGE                   = 2016-09-06T08:27:11.140000 0.009019712500
   DOPPLER_INSTANTANEOUS   = 2016-09-06T08:27:11.140000 5.353940650296
   RANGE                   = 2016-09-06T08:27:11.160000 0.009018868750
   DOPPLER_INSTANTANEOUS   = 2016-09-06T08:27:11.160000 5.353940650296
   RANGE                   = 2016-09-06T08:27:11.180000 0.009018087500
   DOPPLER_INSTANTANEOUS   = 2016-09-06T08:27:11.180000 5.353940650296
   RANGE                   = 2016-09-06T08:27:11.200000 0.009017431250
   DOPPLER_INSTANTANEOUS   = 2016-09-06T08:27:11.200000 5.353940650296
   RANGE                   = 2016-09-06T08:27:11.220000 0.009016712500
   DOPPLER_INSTANTANEOUS   = 2016-09-06T08:27:11.220000 5.275206228969
   RANGE                   = 2016-09-06T08:27:11.240000 0.009015931250
   DOPPLER_INSTANTANEOUS   = 2016-09-06T08:27:11.240000 5.275206228969
   RANGE                   = 2016-09-06T08:27:11.260000 0.009015056250
   DOPPLER_INSTANTANEOUS   = 2016-09-06T08:27:11.260000 5.275206228969
   RANGE                   = 2016-09-06T08:27:11.280000 0.009014525000
   DOPPLER_INSTANTANEOUS   = 2016-09-06T08:27:11.280000 5.275206228969
   RANGE                   = 2016-09-06T08:27:11.300000 0.009013868750
   DOPPLER_INSTANTANEOUS   = 2016-09-06T08:27:11.300000 5.275206228969
   RANGE                   = 2016-09-06T08:27:11.320000 0.009012900000
   DOPPLER_INSTANTANEOUS   = 2016-09-06T08:27:11.320000 5.275206228969
   RANGE                   = 2016-09-06T08:27:11.340000 0.009012306250
   DOPPLER_INSTANTANEOUS   = 2016-09-06T08:27:11.340000 5.275206228969
   RANGE                   = 2016-09-06T08:27:11.360000 0.009011681250
   DOPPLER_INSTANTANEOUS   = 2016-09-06T08:27:11.360000 5.275206228969
   RANGE                   = 2016-09-06T08:27:11.380000 0.009010900000
   DOPPLER_INSTANTANEOUS   = 2016-09-06T08:27:11.380000 5.275206228969
   RANGE                   = 2016-09-06T08:27:11.400000 0.009010118750
   DOPPLER_INSTANTANEOUS   = 2016-09-06T08:27:11.400000 5.275206228969
   RANGE                   = 2016-09-06T08:27:11.420000 0.009009493750
   DOPPLER_INSTANTANEOUS   = 2016-09-06T08:27:11.420000 5.275206228969
   RANGE                   = 2016-09-06T08:27:11.440000 0.009008775000
   DOPPLER_INSTANTANEOUS   = 2016-09-06T08:27:11.440000 5.275206228969
   RANGE                   = 2016-09-06T08:27:11.460000 0.009007962500
   DOPPLER_INSTANTANEOUS   = 2016-09-06T08:27:11.460000 5.275206228969
   RANGE                   = 2016-09-06T08:27:11.480000 0.009007337500
   DOPPLER_INSTANTANEOUS   = 2016-09-06T08:27:11.480000 5.275206228969
   RANGE                   = 2016-09-06T08:27:11.500000 0.009006681250
   DOPPLER_INSTANTANEOUS   = 2016-09-06T08:27:11.500000 5.275206228969
   RANGE                   = 2016-09-06T08:27:11.520000 0.009005868750
   DOPPLER_INSTANTANEOUS   = 2016-09-06T08:27:11.520000 5.275206228969
   RANGE                   = 2016-09-06T08:27:11.540000 0.009005118750
   DOPPLER_INSTANTANEOUS   = 2016-09-06T08:27:11.540000 5.275206228969
   RANGE                   = 2016-09-06T08:27:11.560000 0.009004587500
   DOPPLER_INSTANTANEOUS   = 2016-09-06T08:27:11.560000 5.275206228969
   RANGE                   = 2016-09-06T08:27:11.580000 0.009003806250
   DOPPLER_INSTANTANEOUS   = 2016-09-06T08:27:11.580000 5.275206228969
   RANGE                   = 2016-09-06T08:27:11.600000 0.009002993750
   DOPPLER_INSTANTANEOUS   = 2016-09-06T08:27:11.600000 5.275206228969
   RANGE                   = 2016-09-06T08:27:11.620000 0.009002400000
   DOPPLER_INSTANTANEOUS   = 2016-09-06T08:27:11.620000 5.275206228969
   RANGE                   = 2016-09-06T08:27:11.640000 0.009001712500
   DOPPLER_INSTANTANEOUS   = 2016-09-06T08:27:11.640000 5.275206228969
   RANGE                   = 2016-09-06T08:27:11.660000 0.009000900000
   DOPPLER_INSTANTANEOUS   = 2016-09-06T08:27:11.660000 5.275206228969
   RANGE                   = 2016-09-06T08:27:11.680000 0.009000212500
   DOPPLER_INSTANTANEOUS   = 2016-09-06T08:27:11.680000 5.275206228969
   RANGE                   = 2016-09-06T08:27:11.700000 0.008999650000
   DOPPLER_INSTANTANEOUS   = 2016-09-06T08:27:11.700000 5.275206228969
   RANGE                   = 2016-09-06T08:27:11.720000 0.008998806250
   DOPPLER_INSTANTANEOUS   = 2016-09-06T08:27:11.720000 5.275206228969
   RANGE                   = 2016-09-06T08:27:11.740000 0.008998056250
   DOPPLER_INSTANTANEOUS   = 2016-09-06T08:27:11.740000 5.275206228969
   RANGE                   = 2016-09-06T08:27:11.760000 0.008997462500
   DOPPLER_INSTANTANEOUS   = 2016-09-06T08:27:11.760000 5.275206228969
   RANGE                   = 2016-09-06T08:27:11.780000 0.008996712500
   DOPPLER_INSTANTANEOUS   = 2016-09-06T08:27:11.780000 5.275206228969
   RANGE                   = 2016-09-06T08:27:11.800000 0.008995931250
   DOPPLER_INSTANTANEOUS   = 2016-09-06T08:27:11.800000 5.275206228969
   RANGE                   = 2016-09-06T08:27:11.820000 0.008995243750
   DOPPLER_INSTANTANEOUS   = 2016-09-06T08:27:11.820000 5.275206228969
   RANGE                   = 2016-09-06T08:27:11.840000 0.008994618750
   DOPPLER_INSTANTANEOUS   = 2016-09-06T08:27:11.840000 5.275206228969
   RANGE                   = 2016-09-06T08:27:11.860000 0.008993837500
   DOPPLER_INSTANTANEOUS   = 2016-09-06T08:27:11.860000 5.275206228969
   RANGE                   = 2016-09-06T08:27:11.880000 0.008993118750
   DOPPLER_INSTANTANEOUS   = 2016-09-06T08:27:11.880000 5.275206228969
   RANGE                   = 2016-09-06T08:27:11.900000 0.008992525000
   DOPPLER_INSTANTANEOUS   = 2016-09-06T08:27:11.900000 5.275206228969
   RANGE                   = 2016-09-06T08:27:11.920000 0.008991743750
   DOPPLER_INSTANTANEOUS   = 2016-09-06T08:27:11.920000 5.275206228969
   RANGE                   = 2016-09-06T08:27:11.940000 0.008990993750
   DOPPLER_INSTANTANEOUS   = 2016-09-06T08:27:11.940000 5.275206228969
   RANGE                   = 2016-09-06T08:27:11.960000 0.008990243750
   DOPPLER_INSTANTANEOUS   = 2016-09-06T08:27:11.960000 5.275206228969
   RANGE                   = 2016-09-06T08:27:11.980000 0.008989650000
   DOPPLER_INSTANTANEOUS   = 2016-09-06T08:27:11.980000 5.275206228969
   RANGE                   = 2016-09-06T08:27:12.000000 0.008988868750
   DOPPLER_INSTANTANEOUS   = 2016-09-06T08:27:12.000000 5.275206228969
   RANGE                   = 2016-09-06T08:27:12.020000 0.008988087500
   DOPPLER_INSTANTANEOUS   = 2016-09-06T08:27:12.020000 5.275206228969
   RANGE                   = 2016-09-06T08:27:12.040000 0.008987493750
   DOPPLER_INSTANTANEOUS   = 2016-09-06T08:27:12.040000 5.275206228969
   RANGE                   = 2016-09-06T08:27:12.080000 0.008986837500
   DOPPLER_INSTANTANEOUS   = 2016-09-06T08:27:12.080000 5.275206228969
   RANGE                   = 2016-09-06T08:27:12.100000 0.008985775000
   DOPPLER_INSTANTANEOUS   = 2016-09-06T08:27:12.100000 5.275206228969
   RANGE                   = 2016-09-06T08:27:12.120000 0.008984931250
   DOPPLER_INSTANTANEOUS   = 2016-09-06T08:27:12.120000 5.275206228969
   RANGE                   = 2016-09-06T08:27:12.140000 0.008984087500
   DOPPLER_INSTANTANEOUS   = 2016-09-06T08:27:12.140000 5.275206228969
   RANGE                   = 2016-09-06T08:27:12.160000 0.008983400000
   DOPPLER_INSTANTANEOUS   = 2016-09-06T08:27:12.160000 5.275206228969
   RANGE                   = 2016-09-06T08:27:12.180000 0.008982681250
   DOPPLER_INSTANTANEOUS   = 2016-09-06T08:27:12.180000 5.275206228969
   RANGE                   = 2016-09-06T08:27:12.200000 0.008981868750
   DOPPLER_INSTANTANEOUS   = 2016-09-06T08:27:12.200000 5.275206228969
   RANGE                   = 2016-09-06T08:27:12.220000 0.008981150000
   DOPPLER_INSTANTANEOUS   = 2016-09-06T08:27:12.220000 5.275206228969
   RANGE                   = 2016-09-06T08:27:12.240000 0.008980556250
   DOPPLER_INSTANTANEOUS   = 2016-09-06T08:27:12.240000 5.275206228969
   RANGE                   = 2016-09-06T08:27:12.260000 0.008979837500
   DOPPLER_INSTANTANEOUS   = 2016-09-06T08:27:12.260000 5.275206228969
   RANGE                   = 2016-09-06T08:27:12.280000 0.008978993750
   DOPPLER_INSTANTANEOUS   = 2016-09-06T08:27:12.280000 5.275206228969
   RANGE                   = 2016-09-06T08:27:12.300000 0.008978368750
   DOPPLER_INSTANTANEOUS   = 2016-09-06T08:27:12.300000 5.275206228969
   RANGE                   = 2016-09-06T08:27:12.320000 0.008977712500
   DOPPLER_INSTANTANEOUS   = 2016-09-06T08:27:12.320000 5.275206228969
   RANGE                   = 2016-09-06T08:27:12.340000 0.008976900000
   DOPPLER_INSTANTANEOUS   = 2016-09-06T08:27:12.340000 5.275206228969
   RANGE                   = 2016-09-06T08:27:12.360000 0.008976181250
   DOPPLER_INSTANTANEOUS   = 2016-09-06T08:27:12.360000 5.275206228969
   RANGE                   = 2016-09-06T08:27:12.380000 0.008975587500
   DOPPLER_INSTANTANEOUS   = 2016-09-06T08:27:12.380000 5.275206228969
   RANGE                   = 2016-09-06T08:27:12.400000 0.008974806250
   DOPPLER_INSTANTANEOUS   = 2016-09-06T08:27:12.400000 5.275206228969
   RANGE                   = 2016-09-06T08:27:12.420000 0.008973993750
   DOPPLER_INSTANTANEOUS   = 2016-09-06T08:27:12.420000 5.275206228969
   RANGE                   = 2016-09-06T08:27:12.440000 0.008973400000
   DOPPLER_INSTANTANEOUS   = 2016-09-06T08:27:12.440000 5.275206228969
   RANGE                   = 2016-09-06T08:27:12.460000 0.008972712500
   DOPPLER_INSTANTANEOUS   = 2016-09-06T08:27:12.460000 5.275206228969
   RANGE                   = 2016-09-06T08:27:12.480000 0.008971900000
   DOPPLER_INSTANTANEOUS   = 2016-09-06T08:27:12.480000 5.275206228969
   RANGE                   = 2016-09-06T08:27:12.500000 0.008971181250
   DOPPLER_INSTANTANEOUS   = 2016-09-06T08:27:12.500000 5.275206228969
   RANGE                   = 2016-09-06T08:27:12.520000 0.008970587500
   DOPPLER_INSTANTANEOUS   = 2016-09-06T08:27:12.520000 5.275206228969
   RANGE                   = 2016-09-06T08:27:12.540000 0.008969837500
   DOPPLER_INSTANTANEOUS   = 2016-09-06T08:27:12.540000 5.275206228969
   RANGE                   = 2016-09-06T08:27:12.560000 0.008969025000
   DOPPLER_INSTANTANEOUS   = 2016-09-06T08:27:12.560000 5.275206228969
   RANGE                   = 2016-09-06T08:27:12.580000 0.008968493750
   DOPPLER_INSTANTANEOUS   = 2016-09-06T08:27:12.580000 5.275206228969
   RANGE                   = 2016-09-06T08:27:12.600000 0.008967712500
   DOPPLER_INSTANTANEOUS   = 2016-09-06T08:27:12.600000 5.275206228969
   RANGE                   = 2016-09-06T08:27:12.620000 0.008966962500
   DOPPLER_INSTANTANEOUS   = 2016-09-06T08:27:12.620000 5.275206228969
   RANGE                   = 2016-09-06T08:27:12.640000 0.008966743750
   DOPPLER_INSTANTANEOUS   = 2016-09-06T08:27:12.640000 5.275206228969
   RANGE                   = 2016-09-06T08:27:12.660000 0.008965900000
   DOPPLER_INSTANTANEOUS   = 2016-09-06T08:27:12.660000 5.275206228969
   RANGE                   = 2016-09-06T08:27:12.680000 0.008965056250
   DOPPLER_INSTANTANEOUS   = 2016-09-06T08:27:12.680000 5.275206228969
   RANGE                   = 2016-09-06T08:27:12.700000 0.008964306250
   DOPPLER_INSTANTANEOUS   = 2016-09-06T08:27:12.700000 5.275206228969
   RANGE                   = 2016-09-06T08:27:12.720000 0.008963712500
   DOPPLER_INSTANTANEOUS   = 2016-09-06T08:27:12.720000 5.275206228969
   RANGE                   = 2016-09-06T08:27:12.740000 0.008962900000
   DOPPLER_INSTANTANEOUS   = 2016-09-06T08:27:12.740000 5.275206228969
   RANGE                   = 2016-09-06T08:27:12.760000 0.008962118750
   DOPPLER_INSTANTANEOUS   = 2016-09-06T08:27:12.760000 5.275206228969
   RANGE                   = 2016-09-06T08:27:12.780000 0.008961525000
   DOPPLER_INSTANTANEOUS   = 2016-09-06T08:27:12.780000 5.275206228969
   RANGE                   = 2016-09-06T08:27:12.800000 0.008960775000
   DOPPLER_INSTANTANEOUS   = 2016-09-06T08:27:12.800000 5.275206228969
   RANGE                   = 2016-09-06T08:27:12.820000 0.008959993750
   DOPPLER_INSTANTANEOUS   = 2016-09-06T08:27:12.820000 5.275206228969
   RANGE                   = 2016-09-06T08:27:12.840000 0.008959275000
   DOPPLER_INSTANTANEOUS   = 2016-09-06T08:27:12.840000 5.275206228969
   RANGE                   = 2016-09-06T08:27:12.860000 0.008958712500
   DOPPLER_INSTANTANEOUS   = 2016-09-06T08:27:12.860000 5.275206228969
   RANGE                   = 2016-09-06T08:27:12.880000 0.008957868750
   DOPPLER_INSTANTANEOUS   = 2016-09-06T08:27:12.880000 5.275206228969
   RANGE                   = 2016-09-06T08:28:05.820000 0.007279962500
   DOPPLER_INSTANTANEOUS   = 2016-09-06T08:28:05.820000 4.094189909050
   RANGE                   = 2016-09-06T08:28:05.840000 0.007279368750
   DOPPLER_INSTANTANEOUS   = 2016-09-06T08:28:05.840000 4.094189909050
   RANGE                   = 2016-09-06T08:28:05.860000 0.007278837500
   DOPPLER_INSTANTANEOUS   = 2016-09-06T08:28:05.860000 4.094189909050
   RANGE                   = 2016-09-06T08:28:05.880000 0.007278181250
   DOPPLER_INSTANTANEOUS   = 2016-09-06T08:28:05.880000 4.094189909050
   RANGE                   = 2016-09-06T08:28:05.900000 0.007277743750
   DOPPLER_INSTANTANEOUS   = 2016-09-06T08:28:05.900000 4.094189909050
   RANGE                   = 2016-09-06T08:28:05.920000 0.007277056250
   DOPPLER_INSTANTANEOUS   = 2016-09-06T08:28:05.920000 4.094189909050
   RANGE                   = 2016-09-06T08:28:05.940000 0.007276650000
   DOPPLER_INSTANTANEOUS   = 2016-09-06T08:28:05.940000 4.094189909050
   RANGE                   = 2016-09-06T08:28:05.960000 0.007275993750
   DOPPLER_INSTANTANEOUS   = 2016-09-06T08:28:05.960000 4.094189909050
   RANGE                   = 2016-09-06T08:28:05.980000 0.007275525000
   DOPPLER_INSTANTANEOUS   = 2016-09-06T08:28:05.980000 4.094189909050
   RANGE                   = 2016-09-06T08:28:06.000000 0.007274900000
   DOPPLER_INSTANTANEOUS   = 2016-09-06T08:28:06.000000 4.094189909050
   RANGE                   = 2016-09-06T08:28:06.020000 0.007274337500
   DOPPLER_INSTANTANEOUS   = 2016-09-06T08:28:06.020000 4.094189909050
   RANGE                   = 2016-09-06T08:28:06.040000 0.007273806250
   DOPPLER_INSTANTANEOUS   = 2016-09-06T08:28:06.040000 4.094189909050
   RANGE                   = 2016-09-06T08:28:06.060000 0.007273243750
   DOPPLER_INSTANTANEOUS   = 2016-09-06T08:28:06.060000 4.094189909050
   RANGE                   = 2016-09-06T08:28:06.080000 0.007272775000
   DOPPLER_INSTANTANEOUS   = 2016-09-06T08:28:06.080000 4.094189909050
   RANGE                   = 2016-09-06T08:28:06.100000 0.007272118750
   DOPPLER_INSTANTANEOUS   = 2016-09-06T08:28:06.100000 4.094189909050
   RANGE                   = 2016-09-06T08:28:06.120000 0.007271681250
   DOPPLER_INSTANTANEOUS   = 2016-09-06T08:28:06.120000 4.094189909050
   RANGE                   = 2016-09-06T08:28:06.140000 0.007271025000
   DOPPLER_INSTANTANEOUS   = 2016-09-06T08:28:06.140000 4.094189909050
   RANGE                   = 2016-09-06T08:28:06.160000 0.007270650000
   DOPPLER_INSTANTANEOUS   = 2016-09-06T08:28:06.160000 4.094189909050
   RANGE                   = 2016-09-06T08:28:06.180000 0.007269993750
   DOPPLER_INSTANTANEOUS   = 2016-09-06T08:28:06.180000 4.094189909050
   RANGE                   = 2016-09-06T08:28:06.200000 0.007269493750
   DOPPLER_INSTANTANEOUS   = 2016-09-06T08:28:06.200000 4.094189909050
   RANGE                   = 2016-09-06T08:28:06.220000 0.007268931250
   DOPPLER_INSTANTANEOUS   = 2016-09-06T08:28:06.220000 4.094189909050
   RANGE                   = 2016-09-06T08:28:06.240000 0.007268400000
   DOPPLER_INSTANTANEOUS   = 2016-09-06T08:28:06.240000 4.094189909050
   RANGE                   = 2016-09-06T08:28:06.260000 0.007267806250
   DOPPLER_INSTANTANEOUS   = 2016-09-06T08:28:06.260000 4.094189909050
   RANGE                   = 2016-09-06T08:28:06.280000 0.007266993750
   DOPPLER_INSTANTANEOUS   = 2016-09-06T08:28:06.280000 4.094189909050
   RANGE                   = 2016-09-06T08:28:06.300000 0.007266681250
   DOPPLER_INSTANTANEOUS   = 2016-09-06T08:28:06.300000 4.094189909050
   RANGE                   = 2016-09-06T08:28:06.320000 0.007265993750
   DOPPLER_INSTANTANEOUS   = 2016-09-06T08:28:06.320000 4.094189909050
   RANGE                   = 2016-09-06T08:28:06.340000 0.007265650000
   DOPPLER_INSTANTANEOUS   = 2016-09-06T08:28:06.340000 4.094189909050
   RANGE                   = 2016-09-06T08:28:06.360000 0.007264993750
   DOPPLER_INSTANTANEOUS   = 2016-09-06T08:28:06.360000 4.094189909050
   RANGE                   = 2016-09-06T08:28:06.380000 0.007264618750
   DOPPLER_INSTANTANEOUS   = 2016-09-06T08:28:06.380000 4.094189909050
   RANGE                   = 2016-09-06T08:28:06.400000 0.007263962500
   DOPPLER_INSTANTANEOUS   = 2016-09-06T08:28:06.400000 4.094189909050
   RANGE                   = 2016-09-06T08:28:06.420000 0.007263462500
   DOPPLER_INSTANTANEOUS   = 2016-09-06T08:28:06.420000 4.094189909050
   RANGE                   = 2016-09-06T08:28:06.440000 0.007262837500
   DOPPLER_INSTANTANEOUS   = 2016-09-06T08:28:06.440000 4.094189909050
   RANGE                   = 2016-09-06T08:28:06.460000 0.007262337500
   DOPPLER_INSTANTANEOUS   = 2016-09-06T08:28:06.460000 4.094189909050
   RANGE                   = 2016-09-06T08:28:06.480000 0.007261806250
   DOPPLER_INSTANTANEOUS   = 2016-09-06T08:28:06.480000 4.094189909050
   RANGE                   = 2016-09-06T08:28:06.500000 0.007261243750
   DOPPLER_INSTANTANEOUS   = 2016-09-06T08:28:06.500000 4.094189909050
   RANGE                   = 2016-09-06T08:28:06.520000 0.007260775000
   DOPPLER_INSTANTANEOUS   = 2016-09-06T08:28:06.520000 4.094189909050
   RANGE                   = 2016-09-06T08:28:06.540000 0.007260087500
   DOPPLER_INSTANTANEOUS   = 2016-09-06T08:28:06.540000 4.094189909050
   RANGE                   = 2016-09-06T08:28:06.560000 0.007259775000
   DOPPLER_INSTANTANEOUS   = 2016-09-06T08:28:06.560000 4.094189909050
   RANGE                   = 2016-09-06T08:28:06.580000 0.007259087500
   DOPPLER_INSTANTANEOUS   = 2016-09-06T08:28:06.580000 4.094189909050
   RANGE                   = 2016-09-06T08:28:06.600000 0.007258650000
   DOPPLER_INSTANTANEOUS   = 2016-09-06T08:28:06.600000 4.094189909050
   RANGE                   = 2016-09-06T08:28:06.620000 0.007257931250
   DOPPLER_INSTANTANEOUS   = 2016-09-06T08:28:06.620000 4.094189909050
   RANGE                   = 2016-09-06T08:28:06.640000 0.007257587500
   DOPPLER_INSTANTANEOUS   = 2016-09-06T08:28:06.640000 4.094189909050
   RANGE                   = 2016-09-06T08:28:06.660000 0.007256900000
   DOPPLER_INSTANTANEOUS   = 2016-09-06T08:28:06.660000 4.094189909050
   RANGE                   = 2016-09-06T08:28:06.680000 0.007256368750
   DOPPLER_INSTANTANEOUS   = 2016-09-06T08:28:06.680000 4.094189909050
   RANGE                   = 2016-09-06T08:28:06.700000 0.007255900000
   DOPPLER_INSTANTANEOUS   = 2016-09-06T08:28:06.700000 4.094189909050
   RANGE                   = 2016-09-06T08:28:06.720000 0.007255400000
   DOPPLER_INSTANTANEOUS   = 2016-09-06T08:28:06.720000 4.094189909050
   RANGE                   = 2016-09-06T08:28:06.740000 0.007254806250
   DOPPLER_INSTANTANEOUS   = 2016-09-06T08:28:06.740000 4.094189909050
   RANGE                   = 2016-09-06T08:28:06.760000 0.007254212500
   DOPPLER_INSTANTANEOUS   = 2016-09-06T08:28:06.760000 4.094189909050
   RANGE                   = 2016-09-06T08:28:06.780000 0.007253775000
   DOPPLER_INSTANTANEOUS   = 2016-09-06T08:28:06.780000 4.094189909050
   RANGE                   = 2016-09-06T08:28:06.800000 0.007253087500
   DOPPLER_INSTANTANEOUS   = 2016-09-06T08:28:06.800000 4.094189909050
   RANGE                   = 2016-09-06T08:28:06.820000 0.007252712500
   DOPPLER_INSTANTANEOUS   = 2016-09-06T08:28:06.820000 4.094189909050
   RANGE                   = 2016-09-06T08:28:06.840000 0.007252056250
   DOPPLER_INSTANTANEOUS   = 2016-09-06T08:28:06.840000 4.094189909050
   RANGE                   = 2016-09-06T08:28:06.860000 0.007251618750
   DOPPLER_INSTANTANEOUS   = 2016-09-06T08:28:06.860000 4.094189909050
   RANGE                   = 2016-09-06T08:28:06.880000 0.007250993750
   DOPPLER_INSTANTANEOUS   = 2016-09-06T08:28:06.880000 4.094189909050
   RANGE                   = 2016-09-06T08:28:06.900000 0.007250431250
   DOPPLER_INSTANTANEOUS   = 2016-09-06T08:28:06.900000 4.094189909050
   RANGE                   = 2016-09-06T08:28:06.920000 0.007249868750
   DOPPLER_INSTANTANEOUS   = 2016-09-06T08:28:06.920000 4.094189909050
   RANGE                   = 2016-09-06T08:28:06.940000 0.007249243750
   DOPPLER_INSTANTANEOUS   = 2016-09-06T08:28:06.940000 4.015455487722
   RANGE                   = 2016-09-06T08:28:06.960000 0.007248806250
   DOPPLER_INSTANTANEOUS   = 2016-09-06T08:28:06.960000 4.015455487722
   RANGE                   = 2016-09-06T08:28:06.980000 0.007248150000
   DOPPLER_INSTANTANEOUS   = 2016-09-06T08:28:06.980000 4.015455487722
   RANGE                   = 2016-09-06T08:28:07.000000 0.007247712500
   DOPPLER_INSTANTANEOUS   = 2016-09-06T08:28:07.000000 4.015455487722
   RANGE                   = 2016-09-06T08:28:07.020000 0.007247118750
   DOPPLER_INSTANTANEOUS   = 2016-09-06T08:28:07.020000 4.015455487722
   RANGE                   = 2016-09-06T08:28:07.040000 0.007246650000
   DOPPLER_INSTANTANEOUS   = 2016-09-06T08:28:07.040000 4.015455487722
   RANGE                   = 2016-09-06T08:28:07.060000 0.007245962500
   DOPPLER_INSTANTANEOUS   = 2016-09-06T08:28:07.060000 4.015455487722
   RANGE                   = 2016-09-06T08:28:07.080000 0.007245525000
   DOPPLER_INSTANTANEOUS   = 2016-09-06T08:28:07.080000 4.015455487722
   RANGE                   = 2016-09-06T08:28:07.100000 0.007244900000
   DOPPLER_INSTANTANEOUS   = 2016-09-06T08:28:07.100000 4.015455487722
   RANGE                   = 2016-09-06T08:28:07.120000 0.007244431250
   DOPPLER_INSTANTANEOUS   = 2016-09-06T08:28:07.120000 4.015455487722
   RANGE                   = 2016-09-06T08:28:07.140000 0.007243868750
   DOPPLER_INSTANTANEOUS   = 2016-09-06T08:28:07.140000 4.015455487722
   RANGE                   = 2016-09-06T08:28:07.160000 0.007243306250
   DOPPLER_INSTANTANEOUS   = 2016-09-06T08:28:07.160000 4.015455487722
   RANGE                   = 2016-09-06T08:28:07.180000 0.007242837500
   DOPPLER_INSTANTANEOUS   = 2016-09-06T08:28:07.180000 4.015455487722
   RANGE                   = 2016-09-06T08:28:07.200000 0.007242181250
   DOPPLER_INSTANTANEOUS   = 2016-09-06T08:28:07.200000 4.015455487722
   RANGE                   = 2016-09-06T08:28:07.220000 0.007241775000
   DOPPLER_INSTANTANEOUS   = 2016-09-06T08:28:07.220000 4.015455487722
   RANGE                   = 2016-09-06T08:28:07.240000 0.007241118750
   DOPPLER_INSTANTANEOUS   = 2016-09-06T08:28:07.240000 4.015455487722
   RANGE                   = 2016-09-06T08:28:07.260000 0.007240712500
   DOPPLER_INSTANTANEOUS   = 2016-09-06T08:28:07.260000 4.015455487722
   RANGE                   = 2016-09-06T08:28:07.280000 0.007240025000
   DOPPLER_INSTANTANEOUS   = 2016-09-06T08:28:07.280000 4.015455487722
   RANGE                   = 2016-09-06T08:28:07.300000 0.007239650000
   DOPPLER_INSTANTANEOUS   = 2016-09-06T08:28:07.300000 4.015455487722
   RANGE                   = 2016-09-06T08:28:07.320000 0.007238962500
   DOPPLER_INSTANTANEOUS   = 2016-09-06T08:28:07.320000 4.015455487722
   RANGE                   = 2016-09-06T08:28:07.340000 0.007238525000
   DOPPLER_INSTANTANEOUS   = 2016-09-06T08:28:07.340000 4.015455487722
   RANGE                   = 2016-09-06T08:28:07.360000 0.007237900000
   DOPPLER_INSTANTANEOUS   = 2016-09-06T08:28:07.360000 4.015455487722
   RANGE                   = 2016-09-06T08:28:07.380000 0.007237431250
   DOPPLER_INSTANTANEOUS   = 2016-09-06T08:28:07.380000 4.015455487722
   RANGE                   = 2016-09-06T08:28:07.400000 0.007236837500
   DOPPLER_INSTANTANEOUS   = 2016-09-06T08:28:07.400000 4.015455487722
   RANGE                   = 2016-09-06T08:28:07.420000 0.007236368750
   DOPPLER_INSTANTANEOUS   = 2016-09-06T08:28:07.420000 4.015455487722
   RANGE                   = 2016-09-06T08:28:07.440000 0.007235806250
   DOPPLER_INSTANTANEOUS   = 2016-09-06T08:28:07.440000 4.015455487722
   RANGE                   = 2016-09-06T08:28:07.460000 0.007235275000
   DOPPLER_INSTANTANEOUS   = 2016-09-06T08:28:07.460000 4.015455487722
   RANGE                   = 2016-09-06T08:28:07.480000 0.007234775000
   DOPPLER_INSTANTANEOUS   = 2016-09-06T08:28:07.480000 4.015455487722
   RANGE                   = 2016-09-06T08:28:07.500000 0.007234118750
   DOPPLER_INSTANTANEOUS   = 2016-09-06T08:28:07.500000 4.015455487722
   RANGE                   = 2016-09-06T08:28:07.520000 0.007233712500
   DOPPLER_INSTANTANEOUS   = 2016-09-06T08:28:07.520000 4.015455487722
   RANGE                   = 2016-09-06T08:28:07.540000 0.007233056250
   DOPPLER_INSTANTANEOUS   = 2016-09-06T08:28:07.540000 4.015455487722
   RANGE                   = 2016-09-06T08:28:07.560000 0.007232650000
   DOPPLER_INSTANTANEOUS   = 2016-09-06T08:28:07.560000 4.015455487722
   RANGE                   = 2016-09-06T08:28:07.580000 0.007231931250
   DOPPLER_INSTANTANEOUS   = 2016-09-06T08:28:07.580000 4.015455487722
   RANGE                   = 2016-09-06T08:28:07.600000 0.007231493750
   DOPPLER_INSTANTANEOUS   = 2016-09-06T08:28:07.600000 4.015455487722
   RANGE                   = 2016-09-06T08:28:07.620000 0.007230900000
   DOPPLER_INSTANTANEOUS   = 2016-09-06T08:28:07.620000 4.015455487722
   RANGE                   = 2016-09-06T08:28:07.640000 0.007230337500
   DOPPLER_INSTANTANEOUS   = 2016-09-06T08:28:07.640000 4.015455487722
   RANGE                   = 2016-09-06T08:28:07.660000 0.007229806250
   DOPPLER_INSTANTANEOUS   = 2016-09-06T08:28:07.660000 4.015455487722
   RANGE                   = 2016-09-06T08:28:07.680000 0.007229275000
   DOPPLER_INSTANTANEOUS   = 2016-09-06T08:28:07.680000 4.015455487722
   RANGE                   = 2016-09-06T08:28:07.700000 0.007228775000
   DOPPLER_INSTANTANEOUS   = 2016-09-06T08:28:07.700000 4.015455487722
   RANGE                   = 2016-09-06T08:28:07.720000 0.007228181250
   DOPPLER_INSTANTANEOUS   = 2016-09-06T08:28:07.720000 4.015455487722
   RANGE                   = 2016-09-06T08:28:07.740000 0.007227743750
   DOPPLER_INSTANTANEOUS   = 2016-09-06T08:28:07.740000 4.015455487722
   RANGE                   = 2016-09-06T08:28:07.760000 0.007227118750
   DOPPLER_INSTANTANEOUS   = 2016-09-06T08:28:07.760000 4.015455487722
   RANGE                   = 2016-09-06T08:28:07.780000 0.007226712500
   DOPPLER_INSTANTANEOUS   = 2016-09-06T08:28:07.780000 4.015455487722
   RANGE                   = 2016-09-06T08:28:07.800000 0.007226056250
   DOPPLER_INSTANTANEOUS   = 2016-09-06T08:28:07.800000 4.015455487722
   RANGE                   = 2016-09-06T08:28:07.820000 0.007225650000
   DOPPLER_INSTANTANEOUS   = 2016-09-06T08:28:07.820000 4.015455487722
   RANGE                   = 2016-09-06T08:28:07.840000 0.007224993750
   DOPPLER_INSTANTANEOUS   = 2016-09-06T08:28:07.840000 4.015455487722
   RANGE                   = 2016-09-06T08:28:07.860000 0.007224618750
   DOPPLER_INSTANTANEOUS   = 2016-09-06T08:28:07.860000 4.015455487722
   RANGE                   = 2016-09-06T08:28:07.880000 0.007223993750
   DOPPLER_INSTANTANEOUS   = 2016-09-06T08:28:07.880000 4.015455487722
   RANGE                   = 2016-09-06T08:28:07.900000 0.007223618750
   DOPPLER_INSTANTANEOUS   = 2016-09-06T08:28:07.900000 4.015455487722
   RANGE                   = 2016-09-06T08:28:07.920000 0.007223212500
   DOPPLER_INSTANTANEOUS   = 2016-09-06T08:28:07.920000 4.015455487722
   RANGE                   = 2016-09-06T08:28:07.940000 0.007223056250
   DOPPLER_INSTANTANEOUS   = 2016-09-06T08:28:07.940000 4.015455487722
   RANGE                   = 2016-09-06T08:28:07.960000 0.007223118750
   DOPPLER_INSTANTANEOUS   = 2016-09-06T08:28:07.960000 4.015455487722
   RANGE                   = 2016-09-06T08:28:08.020000 0.007219556250
   DOPPLER_INSTANTANEOUS   = 2016-09-06T08:28:08.020000 4.015455487722
   RANGE                   = 2016-09-06T08:28:08.040000 0.007219400000
   DOPPLER_INSTANTANEOUS   = 2016-09-06T08:28:08.040000 4.015455487722
   RANGE                   = 2016-09-06T08:28:08.060000 0.007218962500
   DOPPLER_INSTANTANEOUS   = 2016-09-06T08:28:08.060000 4.015455487722
   RANGE                   = 2016-09-06T08:28:08.080000 0.007218681250
   DOPPLER_INSTANTANEOUS   = 2016-09-06T08:28:08.080000 4.015455487722
   RANGE                   = 2016-09-06T08:28:08.100000 0.007218025000
   DOPPLER_INSTANTANEOUS   = 2016-09-06T08:28:08.100000 4.015455487722
   RANGE                   = 2016-09-06T08:28:08.120000 0.007217650000
   DOPPLER_INSTANTANEOUS   = 2016-09-06T08:28:08.120000 4.015455487722
   RANGE                   = 2016-09-06T08:28:08.140000 0.007217025000
   DOPPLER_INSTANTANEOUS   = 2016-09-06T08:28:08.140000 4.015455487722
   RANGE                   = 2016-09-06T08:28:08.160000 0.007216618750
   DOPPLER_INSTANTANEOUS   = 2016-09-06T08:28:08.160000 4.015455487722
   RANGE                   = 2016-09-06T08:28:08.180000 0.007215962500
   DOPPLER_INSTANTANEOUS   = 2016-09-06T08:28:08.180000 4.015455487722
   RANGE                   = 2016-09-06T08:28:08.200000 0.007215556250
   DOPPLER_INSTANTANEOUS   = 2016-09-06T08:28:08.200000 4.015455487722
   RANGE                   = 2016-09-06T08:28:08.220000 0.007214931250
   DOPPLER_INSTANTANEOUS   = 2016-09-06T08:28:08.220000 4.015455487722
   RANGE                   = 2016-09-06T08:28:08.240000 0.007214431250
   DOPPLER_INSTANTANEOUS   = 2016-09-06T08:28:08.240000 4.015455487722
   RANGE                   = 2016-09-06T08:28:08.260000 0.007213868750
   DOPPLER_INSTANTANEOUS   = 2016-09-06T08:28:08.260000 4.015455487722
   RANGE                   = 2016-09-06T08:28:08.280000 0.007213306250
   DOPPLER_INSTANTANEOUS   = 2016-09-06T08:28:08.280000 4.015455487722
   RANGE                   = 2016-09-06T08:28:08.300000 0.007212806250
   DOPPLER_INSTANTANEOUS   = 2016-09-06T08:28:08.300000 4.015455487722
   RANGE                   = 2016-09-06T08:28:08.320000 0.007212181250
   DOPPLER_INSTANTANEOUS   = 2016-09-06T08:28:08.320000 4.015455487722
   RANGE                   = 2016-09-06T08:28:08.340000 0.007211775000
   DOPPLER_INSTANTANEOUS   = 2016-09-06T08:28:08.340000 4.015455487722
   RANGE                   = 2016-09-06T08:28:08.360000 0.007211087500
   DOPPLER_INSTANTANEOUS   = 2016-09-06T08:28:08.360000 4.015455487722
   RANGE                   = 2016-09-06T08:28:08.380000 0.007210681250
   DOPPLER_INSTANTANEOUS   = 2016-09-06T08:28:08.380000 4.015455487722
   RANGE                   = 2016-09-06T08:28:08.400000 0.007210025000
   DOPPLER_INSTANTANEOUS   = 2016-09-06T08:28:08.400000 4.015455487722
   RANGE                   = 2016-09-06T08:28:08.420000 0.007209618750
   DOPPLER_INSTANTANEOUS   = 2016-09-06T08:28:08.420000 4.015455487722
   RANGE                   = 2016-09-06T08:28:08.440000 0.007208962500
   DOPPLER_INSTANTANEOUS   = 2016-09-06T08:28:08.440000 4.015455487722
   RANGE                   = 2016-09-06T08:28:08.460000 0.007208525000
   DOPPLER_INSTANTANEOUS   = 2016-09-06T08:28:08.460000 4.015455487722
   RANGE                   = 2016-09-06T08:28:08.480000 0.007207900000
   DOPPLER_INSTANTANEOUS   = 2016-09-06T08:28:08.480000 4.015455487722
   RANGE                   = 2016-09-06T08:28:08.500000 0.007207462500
   DOPPLER_INSTANTANEOUS   = 2016-09-06T08:28:08.500000 4.015455487722
   RANGE                   = 2016-09-06T08:28:08.520000 0.007206900000
   DOPPLER_INSTANTANEOUS   = 2016-09-06T08:28:08.520000 4.015455487722
   RANGE                   = 2016-09-06T08:28:08.540000 0.007206337500
   DOPPLER_INSTANTANEOUS   = 2016-09-06T08:28:08.540000 4.015455487722
   RANGE                   = 2016-09-06T08:28:08.560000 0.007205806250
   DOPPLER_INSTANTANEOUS   = 2016-09-06T08:28:08.560000 4.015455487722
   RANGE                   = 2016-09-06T08:28:08.580000 0.007205212500
   DOPPLER_INSTANTANEOUS   = 2016-09-06T08:28:08.580000 4.015455487722
   RANGE                   = 2016-09-06T08:28:08.600000 0.007204775000
   DOPPLER_INSTANTANEOUS   = 2016-09-06T08:28:08.600000 4.015455487722
   RANGE                   = 2016-09-06T08:28:08.620000 0.007204150000
   DOPPLER_INSTANTANEOUS   = 2016-09-06T08:28:08.620000 4.015455487722
   RANGE                   = 2016-09-06T08:28:08.640000 0.007203743750
   DOPPLER_INSTANTANEOUS   = 2016-09-06T08:28:08.640000 4.015455487722
   RANGE                   = 2016-09-06T08:28:08.660000 0.007203056250
   DOPPLER_INSTANTANEOUS   = 2016-09-06T08:28:08.660000 4.015455487722
   RANGE                   = 2016-09-06T08:28:08.680000 0.007202681250
   DOPPLER_INSTANTANEOUS   = 2016-09-06T08:28:08.680000 4.015455487722
   RANGE                   = 2016-09-06T08:28:08.700000 0.007201993750
   DOPPLER_INSTANTANEOUS   = 2016-09-06T08:28:08.700000 4.015455487722
   RANGE                   = 2016-09-06T08:28:08.720000 0.007201681250
   DOPPLER_INSTANTANEOUS   = 2016-09-06T08:28:08.720000 4.015455487722
   RANGE                   = 2016-09-06T08:28:08.740000 0.007200993750
   DOPPLER_INSTANTANEOUS   = 2016-09-06T08:28:08.740000 4.015455487722
   RANGE                   = 2016-09-06T08:28:08.760000 0.007200525000
   DOPPLER_INSTANTANEOUS   = 2016-09-06T08:28:08.760000 4.015455487722
   RANGE                   = 2016-09-06T08:28:08.780000 0.007199931250
   DOPPLER_INSTANTANEOUS   = 2016-09-06T08:28:08.780000 4.015455487722
   RANGE                   = 2016-09-06T08:28:08.800000 0.007199462500
   DOPPLER_INSTANTANEOUS   = 2016-09-06T08:28:08.800000 4.015455487722
   RANGE                   = 2016-09-06T08:28:08.820000 0.007198900000
   DOPPLER_INSTANTANEOUS   = 2016-09-06T08:28:08.820000 4.015455487722
   RANGE                   = 2016-09-06T08:28:08.840000 0.007198368750
   DOPPLER_INSTANTANEOUS   = 2016-09-06T08:28:08.840000 4.015455487722
   RANGE                   = 2016-09-06T08:28:08.860000 0.007197868750
   DOPPLER_INSTANTANEOUS   = 2016-09-06T08:28:08.860000 4.015455487722
   RANGE                   = 2016-09-06T08:28:08.880000 0.007197275000
   DOPPLER_INSTANTANEOUS   = 2016-09-06T08:28:08.880000 4.015455487722
   RANGE                   = 2016-09-06T08:28:08.900000 0.007196775000
   DOPPLER_INSTANTANEOUS   = 2016-09-06T08:28:08.900000 4.015455487722
   RANGE                   = 2016-09-06T08:28:08.920000 0.007196181250
   DOPPLER_INSTANTANEOUS   = 2016-09-06T08:28:08.920000 4.015455487722
   RANGE                   = 2016-09-06T08:28:08.940000 0.007195775000
   DOPPLER_INSTANTANEOUS   = 2016-09-06T08:28:08.940000 4.015455487722
   RANGE                   = 2016-09-06T08:28:08.960000 0.007195150000
   DOPPLER_INSTANTANEOUS   = 2016-09-06T08:28:08.960000 4.015455487722
   RANGE                   = 2016-09-06T08:29:02.880000 0.006131806250
   DOPPLER_INSTANTANEOUS   = 2016-09-06T08:29:02.880000 1.732157269214
   RANGE                   = 2016-09-06T08:29:02.900000 0.006131618750
   DOPPLER_INSTANTANEOUS   = 2016-09-06T08:29:02.900000 1.732157269214
   RANGE                   = 2016-09-06T08:29:02.920000 0.006131337500
   DOPPLER_INSTANTANEOUS   = 2016-09-06T08:29:02.920000 1.732157269214
   RANGE                   = 2016-09-06T08:29:02.940000 0.006131025000
   DOPPLER_INSTANTANEOUS   = 2016-09-06T08:29:02.940000 1.732157269214
   RANGE                   = 2016-09-06T08:29:02.960000 0.006130868750
   DOPPLER_INSTANTANEOUS   = 2016-09-06T08:29:02.960000 1.732157269214
   RANGE                   = 2016-09-06T08:29:02.980000 0.006130681250
   DOPPLER_INSTANTANEOUS   = 2016-09-06T08:29:02.980000 1.732157269214
   RANGE                   = 2016-09-06T08:29:03.000000 0.006130368750
   DOPPLER_INSTANTANEOUS   = 2016-09-06T08:29:03.000000 1.732157269214
   RANGE                   = 2016-09-06T08:29:03.020000 0.006130087500
   DOPPLER_INSTANTANEOUS   = 2016-09-06T08:29:03.020000 1.732157269214
   RANGE                   = 2016-09-06T08:29:03.040000 0.006129900000
   DOPPLER_INSTANTANEOUS   = 2016-09-06T08:29:03.040000 1.732157269214
   RANGE                   = 2016-09-06T08:29:03.060000 0.006129743750
   DOPPLER_INSTANTANEOUS   = 2016-09-06T08:29:03.060000 1.732157269214
   RANGE                   = 2016-09-06T08:29:03.080000 0.006129493750
   DOPPLER_INSTANTANEOUS   = 2016-09-06T08:29:03.080000 1.732157269214
   RANGE                   = 2016-09-06T08:29:03.100000 0.006129150000
   DOPPLER_INSTANTANEOUS   = 2016-09-06T08:29:03.100000 1.732157269214
   RANGE                   = 2016-09-06T08:29:03.120000 0.006128931250
   DOPPLER_INSTANTANEOUS   = 2016-09-06T08:29:03.120000 1.732157269214
   RANGE                   = 2016-09-06T08:29:03.140000 0.006128806250
   DOPPLER_INSTANTANEOUS   = 2016-09-06T08:29:03.140000 1.732157269214
   RANGE                   = 2016-09-06T08:29:03.160000 0.006128587500
   DOPPLER_INSTANTANEOUS   = 2016-09-06T08:29:03.160000 1.732157269214
   RANGE                   = 2016-09-06T08:29:03.180000 0.006128275000
   DOPPLER_INSTANTANEOUS   = 2016-09-06T08:29:03.180000 1.732157269214
   RANGE                   = 2016-09-06T08:29:03.200000 0.006128025000
   DOPPLER_INSTANTANEOUS   = 2016-09-06T08:29:03.200000 1.732157269214
   RANGE                   = 2016-09-06T08:29:03.220000 0.006127868750
   DOPPLER_INSTANTANEOUS   = 2016-09-06T08:29:03.220000 1.732157269214
   RANGE                   = 2016-09-06T08:29:03.240000 0.006127681250
   DOPPLER_INSTANTANEOUS   = 2016-09-06T08:29:03.240000 1.732157269214
   RANGE                   = 2016-09-06T08:29:03.260000 0.006127462500
   DOPPLER_INSTANTANEOUS   = 2016-09-06T08:29:03.260000 1.732157269214
   RANGE                   = 2016-09-06T08:29:03.280000 0.006127150000
   DOPPLER_INSTANTANEOUS   = 2016-09-06T08:29:03.280000 1.732157269214
   RANGE                   = 2016-09-06T08:29:03.300000 0.006126931250
   DOPPLER_INSTANTANEOUS   = 2016-09-06T08:29:03.300000 1.732157269214
   RANGE                   = 2016-09-06T08:29:03.320000 0.006126712500
   DOPPLER_INSTANTANEOUS   = 2016-09-06T08:29:03.320000 1.732157269214
   RANGE                   = 2016-09-06T08:29:03.340000 0.006126400000
   DOPPLER_INSTANTANEOUS   = 2016-09-06T08:29:03.340000 1.732157269214
   RANGE                   = 2016-09-06T08:29:03.360000 0.006126025000
   DOPPLER_INSTANTANEOUS   = 2016-09-06T08:29:03.360000 1.732157269214
   RANGE                   = 2016-09-06T08:29:03.380000 0.006125837500
   DOPPLER_INSTANTANEOUS   = 2016-09-06T08:29:03.380000 1.732157269214
   RANGE                   = 2016-09-06T08:29:03.400000 0.006125681250
   DOPPLER_INSTANTANEOUS   = 2016-09-06T08:29:03.400000 1.732157269214
   RANGE                   = 2016-09-06T08:29:03.420000 0.006125431250
   DOPPLER_INSTANTANEOUS   = 2016-09-06T08:29:03.420000 1.732157269214
   RANGE                   = 2016-09-06T08:29:03.440000 0.006125150000
   DOPPLER_INSTANTANEOUS   = 2016-09-06T08:29:03.440000 1.732157269214
   RANGE                   = 2016-09-06T08:29:03.460000 0.006124931250
   DOPPLER_INSTANTANEOUS   = 2016-09-06T08:29:03.460000 1.732157269214
   RANGE                   = 2016-09-06T08:29:03.480000 0.006124775000
   DOPPLER_INSTANTANEOUS   = 2016-09-06T08:29:03.480000 1.732157269214
   RANGE                   = 2016-09-06T08:29:03.500000 0.006124556250
   DOPPLER_INSTANTANEOUS   = 2016-09-06T08:29:03.500000 1.732157269214
   RANGE                   = 2016-09-06T08:29:03.520000 0.006124275000
   DOPPLER_INSTANTANEOUS   = 2016-09-06T08:29:03.520000 1.732157269214
   RANGE                   = 2016-09-06T08:29:03.540000 0.006123993750
   DOPPLER_INSTANTANEOUS   = 2016-09-06T08:29:03.540000 1.732157269214
   RANGE                   = 2016-09-06T08:29:03.560000 0.006123837500
   DOPPLER_INSTANTANEOUS   = 2016-09-06T08:29:03.560000 1.732157269214
   RANGE                   = 2016-09-06T08:29:03.580000 0.006123681250
   DOPPLER_INSTANTANEOUS   = 2016-09-06T08:29:03.580000 1.732157269214
   RANGE                   = 2016-09-06T08:29:03.600000 0.006123431250
   DOPPLER_INSTANTANEOUS   = 2016-09-06T08:29:03.600000 1.732157269214
   RANGE                   = 2016-09-06T08:29:03.620000 0.006123118750
   DOPPLER_INSTANTANEOUS   = 2016-09-06T08:29:03.620000 1.732157269214
   RANGE                   = 2016-09-06T08:29:03.640000 0.006122900000
   DOPPLER_INSTANTANEOUS   = 2016-09-06T08:29:03.640000 1.732157269214
   RANGE                   = 2016-09-06T08:29:03.660000 0.006122775000
   DOPPLER_INSTANTANEOUS   = 2016-09-06T08:29:03.660000 1.732157269214
   RANGE                   = 2016-09-06T08:29:03.680000 0.006122556250
   DOPPLER_INSTANTANEOUS   = 2016-09-06T08:29:03.680000 1.732157269214
   RANGE                   = 2016-09-06T08:29:03.700000 0.006122243750
   DOPPLER_INSTANTANEOUS   = 2016-09-06T08:29:03.700000 1.732157269214
   RANGE                   = 2016-09-06T08:29:03.720000 0.006121993750
   DOPPLER_INSTANTANEOUS   = 2016-09-06T08:29:03.720000 1.732157269214
   RANGE                   = 2016-09-06T08:29:03.740000 0.006121837500
   DOPPLER_INSTANTANEOUS   = 2016-09-06T08:29:03.740000 1.732157269214
   RANGE                   = 2016-09-06T08:29:03.760000 0.006121681250
   DOPPLER_INSTANTANEOUS   = 2016-09-06T08:29:03.760000 1.732157269214
   RANGE                   = 2016-09-06T08:29:03.780000 0.006121337500
   DOPPLER_INSTANTANEOUS   = 2016-09-06T08:29:03.780000 1.732157269214
   RANGE                   = 2016-09-06T08:29:03.800000 0.006121087500
   DOPPLER_INSTANTANEOUS   = 2016-09-06T08:29:03.800000 1.732157269214
   RANGE                   = 2016-09-06T08:29:03.820000 0.006120900000
